[
    {
        "id": 8478152431458493,
        "name": "1909 Orchard Lane",
        "description": "Aestas adhuc aeternus commodo facilis dapifer crustulum thalassinus.",
        "latitude": 4.7455637013977086,
        "longitude": -74.20753169753033
    },
    {
        "id": 7189048134391335,
        "name": "6615 O'Keefe Gardens",
        "description": "Curatio pectus degenero conservo suffragium.",
        "latitude": 4.638694226058353,
        "longitude": -74.28710960038325
    },
    {
        "id": 5012550189794417,
        "name": "3021 Hudson Course",
        "description": "Adsidue campana casso defero truculenter utor.",
        "latitude": 4.740162371673383,
        "longitude": -74.35649849491784
    },
    {
        "id": 7328702585294352,
        "name": "92999 Romaguera Inlet",
        "description": "Caelestis consectetur ultra amet ara volubilis clarus arcesso attonbitus quos.",
        "latitude": 4.72731991719759,
        "longitude": -74.37628092953548
    },
    {
        "id": 3211096939159671,
        "name": "746 Cleta Cliff",
        "description": "Suggero celo vomica vociferor adhaero pariatur quisquam supra.",
        "latitude": 4.694665329415248,
        "longitude": -74.29536078750652
    },
    {
        "id": 4540613157808168,
        "name": "14068 State Avenue",
        "description": "Aveho careo utroque.",
        "latitude": 4.769849516475452,
        "longitude": -74.25827200785506
    },
    {
        "id": 3025817669194477,
        "name": "2760 Maple Close",
        "description": "Cur averto arca statim ventosus thesaurus vinculum.",
        "latitude": 4.5679973257304125,
        "longitude": -74.37351057598198
    },
    {
        "id": 1460561083691475,
        "name": "10185 Norwood Run",
        "description": "Stella averto argumentum ambitus.",
        "latitude": 4.627780088832792,
        "longitude": -74.22117554753493
    },
    {
        "id": 4737512768224742,
        "name": "30436 Jennings Key",
        "description": "Dapifer nam pauper torqueo textilis impedit timidus.",
        "latitude": 4.6425286346689525,
        "longitude": -74.23967079408794
    },
    {
        "id": 5746488721432773,
        "name": "886 Mulberry Street",
        "description": "Aliquam demulceo contra somnus denique aliquid sumo voluptates consectetur.",
        "latitude": 4.593981774600446,
        "longitude": -74.2019157086292
    }
]