[
    {
        "id": 7424049115364989,
        "name": "6758 Hammes Loaf",
        "description": "Tergo vox uter accedo.",
        "latitude": 4.523868119882936,
        "longitude": -74.26891114885154
    },
    {
        "id": 3750054784105970,
        "name": "799 Poplar Close",
        "description": "Theologus votum defungo tumultus decretum.",
        "latitude": 4.739529037728919,
        "longitude": -74.2201747161015
    },
    {
        "id": 4844907924910306,
        "name": "469 Stanton Green",
        "description": "Culpo adopto stabilis vis desipio.",
        "latitude": 4.674578783622708,
        "longitude": -74.32149599891977
    },
    {
        "id": 381369984900980,
        "name": "31521 Tamara Glens",
        "description": "Virga temeritas adimpleo verbera vestrum pectus utroque.",
        "latitude": 4.6282821539149825,
        "longitude": -74.30511789612336
    },
    {
        "id": 8644794202255924,
        "name": "90768 Woodland Road",
        "description": "Campana spectaculum canto delinquo tribuo.",
        "latitude": 4.639263130685598,
        "longitude": -74.38768817535129
    },
    {
        "id": 693918597167509,
        "name": "5446 Central Avenue",
        "description": "Sublime tristis cupio vinum.",
        "latitude": 4.630092345807473,
        "longitude": -74.27285730482623
    },
    {
        "id": 8168180245656397,
        "name": "5596 Liliane Street",
        "description": "Centum conspergo volva amissio statim victus virga argumentum attonbitus caelestis.",
        "latitude": 4.661437188215583,
        "longitude": -74.22791436498358
    },
    {
        "id": 5825446784080180,
        "name": "40607 Mitchell Shoal",
        "description": "Derelinquo aggero clarus pax vomica.",
        "latitude": 4.605382834102261,
        "longitude": -74.19076252451595
    },
    {
        "id": 4019935159318152,
        "name": "375 Lacey Neck",
        "description": "Accommodo tametsi cogo.",
        "latitude": 4.648644983295294,
        "longitude": -74.27270391551411
    },
    {
        "id": 8262015850286274,
        "name": "353 Clarabelle River",
        "description": "Stips ter suus.",
        "latitude": 4.627843847592485,
        "longitude": -74.30105240039649
    }
]