[
    {
        "id": 7978710185378261,
        "name": "201 Lavada Forks",
        "description": "Vilicus succedo coaegresco attero.",
        "latitude": 4.6245239257237865,
        "longitude": -74.32086346671554
    },
    {
        "id": 6514834915737180,
        "name": "3304 Cordell Trace",
        "description": "Conitor ademptio eum.",
        "latitude": 4.643612187254075,
        "longitude": -74.31993234860602
    },
    {
        "id": 1271306999775492,
        "name": "50222 Rohan Camp",
        "description": "Arcus cunae spiculum deprecator appono.",
        "latitude": 4.68790316647272,
        "longitude": -74.34515716312137
    },
    {
        "id": 4040410815855466,
        "name": "1781 Johathan Station",
        "description": "Absum beatae comitatus demo vacuus cotidie coerceo curto.",
        "latitude": 4.613466522524663,
        "longitude": -74.37950579901491
    },
    {
        "id": 3931473624686233,
        "name": "3632 The Rise",
        "description": "Ullam valetudo vehemens talis utpote paens id adiuvo.",
        "latitude": 4.625872904757251,
        "longitude": -74.3488531408421
    },
    {
        "id": 4745733399159521,
        "name": "661 Rey Falls",
        "description": "Validus paulatim demens urbs occaecati vetus caput apud.",
        "latitude": 4.675501545582809,
        "longitude": -74.1553654356648
    },
    {
        "id": 1725245759273080,
        "name": "7807 Church Hill",
        "description": "Vinitor ipsum viridis.",
        "latitude": 4.55988143070337,
        "longitude": -74.17857389860188
    },
    {
        "id": 7661949244816523,
        "name": "4793 Sawayn Curve",
        "description": "Cursim callide vix ater.",
        "latitude": 4.706458387945491,
        "longitude": -74.23993437643935
    },
    {
        "id": 1539263330810209,
        "name": "447 Pine Street",
        "description": "Concedo in sono vado occaecati cultura comburo dicta absque avaritia.",
        "latitude": 4.667435482771131,
        "longitude": -74.38660334122011
    },
    {
        "id": 3629492964408194,
        "name": "7039 W Washington Street",
        "description": "Victus minus utilis vesica quos ante delego vitiosus articulus demens.",
        "latitude": 4.634580549759268,
        "longitude": -74.21477627292217
    }
]